{"type":"FeatureCollection",
"crs": { "type": "name", "properties": { "name": "urn:ogc:def:crs:OGC:1.3:CRS84" } },
"features":[
{"type":"Feature","properties":{"SmUserID":0,"SmUserID_1":0,"osm_id":10020006010,"osm_type":"nodes","tourism":"attraction","name":"Candi Prambanan","value":1},"geometry":{"type":"Point","coordinates":[110.4914556,-7.7520157]}},{"type":"Feature","properties":{"SmUserID":0,"SmUserID_1":0,"osm_id":10302177858,"osm_type":"nodes","tourism":"attraction","name":"Obelix Village","value":1},"geometry":{"type":"Point","coordinates":[110.3733915,-7.6877751]}},{"type":"Feature","properties":{"SmUserID":0,"SmUserID_1":0,"osm_id":5201793691,"osm_type":"nodes","tourism":"attraction","name":"Monumen sleman sembada","value":1},"geometry":{"type":"Point","coordinates":[110.4104937,-7.7541555]}},{"type":"Feature","properties":{"SmUserID":0,"SmUserID_1":0,"osm_id":5203790263,"osm_type":"nodes","tourism":"attraction","name":"Monumen Dero","value":1},"geometry":{"type":"Point","coordinates":[110.4105019,-7.7541552]}},{"type":"Feature","properties":{"SmUserID":0,"SmUserID_1":0,"osm_id":5203790261,"osm_type":"nodes","tourism":"attraction","name":"Patung Persembahan","value":1},"geometry":{"type":"Point","coordinates":[110.4161973,-7.7514456]}},{"type":"Feature","properties":{"SmUserID":0,"SmUserID_1":0,"osm_id":1988467903,"osm_type":"nodes","tourism":"attraction","name":"SD Perumnas","value":1},"geometry":{"type":"Point","coordinates":[110.4072218,-7.7567811]}},{"type":"Feature","properties":{"SmUserID":0,"SmUserID_1":0,"osm_id":8493661769,"osm_type":"nodes","tourism":"attraction","name":"Grojogan Watu Purbo","value":1},"geometry":{"type":"Point","coordinates":[110.3397774,-7.6298933]}},{"type":"Feature","properties":{"SmUserID":0,"SmUserID_1":0,"osm_id":3481033672,"osm_type":"nodes","tourism":"attraction","name":"Blue Lagoon","value":1},"geometry":{"type":"Point","coordinates":[110.4503884,-7.7043799]}},{"type":"Feature","properties":{"SmUserID":0,"SmUserID_1":0,"osm_id":2076069019,"osm_type":"nodes","tourism":"attraction","name":"Candi Gebang","value":1},"geometry":{"type":"Point","coordinates":[110.416224,-7.7514278]}},{"type":"Feature","properties":{"SmUserID":0,"SmUserID_1":0,"osm_id":4832034854,"osm_type":"nodes","tourism":"attraction","name":"Candi Sari","value":1},"geometry":{"type":"Point","coordinates":[110.4742174,-7.7615065]}},{"type":"Feature","properties":{"SmUserID":0,"SmUserID_1":0,"osm_id":5201463088,"osm_type":"nodes","tourism":"attraction","name":"Monument sleman sembada","value":1},"geometry":{"type":"Point","coordinates":[110.4096055,-7.7506852]}},{"type":"Feature","properties":{"SmUserID":0,"SmUserID_1":0,"osm_id":5202337992,"osm_type":"nodes","tourism":"attraction","name":"Gerbang karangasem","value":1},"geometry":{"type":"Point","coordinates":[110.4096068,-7.7506676]}},{"type":"Feature","properties":{"SmUserID":0,"SmUserID_1":0,"osm_id":5201793692,"osm_type":"nodes","tourism":"attraction","name":"Tugu Karangasem","value":1},"geometry":{"type":"Point","coordinates":[110.4125045,-7.7514727]}},{"type":"Feature","properties":{"SmUserID":0,"SmUserID_1":0,"osm_id":5201463082,"osm_type":"nodes","tourism":"attraction","name":"Monument slemant sembada","value":1},"geometry":{"type":"Point","coordinates":[110.4084257,-7.7545052]}},{"type":"Feature","properties":{"SmUserID":0,"SmUserID_1":0,"osm_id":2075197723,"osm_type":"nodes","tourism":"attraction","name":"Candi Sambisari","value":1},"geometry":{"type":"Point","coordinates":[110.446949,-7.7623668]}}]}