{"type":"FeatureCollection",
"crs": { "type": "name", "properties": { "name": "urn:ogc:def:crs:OGC:1.3:CRS84" } },
"features":[
{"type":"Feature","properties":{"SmUserID":0,"SmUserID_1":0,"osm_id":12257325159,"osm_type":"nodes","tourism":"hotel","name":"Booboo Homestay Yogyakarta","value":1},"geometry":{"type":"Point","coordinates":[110.4697891,-7.7735024]}},{"type":"Feature","properties":{"SmUserID":0,"SmUserID_1":0,"osm_id":2564076662,"osm_type":"nodes","tourism":"hotel","name":"Hotel Ishiro Kencana","value":1},"geometry":{"type":"Point","coordinates":[110.3803462,-7.7639032]}},{"type":"Feature","properties":{"SmUserID":0,"SmUserID_1":0,"osm_id":6320266616,"osm_type":"nodes","tourism":"hotel","name":"Zen Rooms Depok Sleman Syariha","value":1},"geometry":{"type":"Point","coordinates":[110.4079831,-7.7794471]}},{"type":"Feature","properties":{"SmUserID":0,"SmUserID_1":0,"osm_id":9863810827,"osm_type":"nodes","tourism":"hotel","name":"Hotel Sahid Raya Yogyakarta","value":1},"geometry":{"type":"Point","coordinates":[110.4142254,-7.7799745]}},{"type":"Feature","properties":{"SmUserID":0,"SmUserID_1":0,"osm_id":2024675832,"osm_type":"nodes","tourism":"hotel","name":"Sheraton Mustika Yogyakarta Resort & Spa","value":1},"geometry":{"type":"Point","coordinates":[110.4284082,-7.7798783]}},{"type":"Feature","properties":{"SmUserID":0,"SmUserID_1":0,"osm_id":3765156964,"osm_type":"nodes","tourism":"hotel","name":"Grand Omah Sastro","value":1},"geometry":{"type":"Point","coordinates":[110.394319,-7.7741531]}},{"type":"Feature","properties":{"SmUserID":0,"SmUserID_1":0,"osm_id":9816754607,"osm_type":"nodes","tourism":"hotel","name":"The Manohara Hotel","value":1},"geometry":{"type":"Point","coordinates":[110.3889675,-7.774404]}},{"type":"Feature","properties":{"SmUserID":0,"SmUserID_1":0,"osm_id":3621485952,"osm_type":"nodes","tourism":"hotel","name":"Amelia Hotel","value":1},"geometry":{"type":"Point","coordinates":[110.3924836,-7.7770418]}},{"type":"Feature","properties":{"SmUserID":0,"SmUserID_1":0,"osm_id":9835310919,"osm_type":"nodes","tourism":"hotel","name":"Airy Eco Papringan Ambarrukmo","value":1},"geometry":{"type":"Point","coordinates":[110.3966533,-7.7792783]}},{"type":"Feature","properties":{"SmUserID":0,"SmUserID_1":0,"osm_id":3473031889,"osm_type":"nodes","tourism":"hotel","name":"Puri Artha Hotel","value":1},"geometry":{"type":"Point","coordinates":[110.3912565,-7.7799907]}},{"type":"Feature","properties":{"SmUserID":0,"SmUserID_1":0,"osm_id":3120386138,"osm_type":"nodes","tourism":"hotel","name":"Tiga Lima Homestay","value":1},"geometry":{"type":"Point","coordinates":[110.3870925,-7.7801836]}},{"type":"Feature","properties":{"SmUserID":0,"SmUserID_1":0,"osm_id":3473955070,"osm_type":"nodes","tourism":"hotel","name":"UNY Hotel","value":1},"geometry":{"type":"Point","coordinates":[110.3855567,-7.7736274]}},{"type":"Feature","properties":{"SmUserID":0,"SmUserID_1":0,"osm_id":3884620633,"osm_type":"nodes","tourism":"hotel","name":"Hotel Asih","value":1},"geometry":{"type":"Point","coordinates":[110.381828,-7.776802]}},{"type":"Feature","properties":{"SmUserID":0,"SmUserID_1":0,"osm_id":9671827938,"osm_type":"nodes","tourism":"hotel","name":"Ndalem Jogja Cupuwatu","value":1},"geometry":{"type":"Point","coordinates":[110.452178,-7.7738264]}},{"type":"Feature","properties":{"SmUserID":0,"SmUserID_1":0,"osm_id":3661199890,"osm_type":"nodes","tourism":"hotel","name":"Griya Nalendra","value":1},"geometry":{"type":"Point","coordinates":[110.4288826,-7.5983317]}},{"type":"Feature","properties":{"SmUserID":0,"SmUserID_1":0,"osm_id":3661199894,"osm_type":"nodes","tourism":"hotel","name":"Le Jardin","value":1},"geometry":{"type":"Point","coordinates":[110.426977,-7.5961418]}},{"type":"Feature","properties":{"SmUserID":0,"SmUserID_1":0,"osm_id":3557508870,"osm_type":"nodes","tourism":"hotel","name":"LPP Convention Hotel","value":1},"geometry":{"type":"Point","coordinates":[110.3926237,-7.7786287]}},{"type":"Feature","properties":{"SmUserID":0,"SmUserID_1":0,"osm_id":3473031886,"osm_type":"nodes","tourism":"hotel","name":"Midtown Xpress","value":1},"geometry":{"type":"Point","coordinates":[110.3910186,-7.7800918]}},{"type":"Feature","properties":{"SmUserID":0,"SmUserID_1":0,"osm_id":12106220502,"osm_type":"nodes","tourism":"hotel","name":"Pendowo Huis","value":1},"geometry":{"type":"Point","coordinates":[110.3902415,-7.7733904]}},{"type":"Feature","properties":{"SmUserID":0,"SmUserID_1":0,"osm_id":9835462835,"osm_type":"nodes","tourism":"hotel","name":"Reddoorz Near Jogja City Mall 3","value":1},"geometry":{"type":"Point","coordinates":[110.3602554,-7.7686485]}},{"type":"Feature","properties":{"SmUserID":0,"SmUserID_1":0,"osm_id":3661146417,"osm_type":"nodes","tourism":"hotel","name":"Hotel Taman Eden 2","value":1},"geometry":{"type":"Point","coordinates":[110.4256782,-7.6214547]}},{"type":"Feature","properties":{"SmUserID":0,"SmUserID_1":0,"osm_id":6009385282,"osm_type":"nodes","tourism":"hotel","name":"Athaya Hotel Jogja","value":1},"geometry":{"type":"Point","coordinates":[110.3835068,-7.7614723]}},{"type":"Feature","properties":{"SmUserID":0,"SmUserID_1":0,"osm_id":4040128043,"osm_type":"nodes","tourism":"hotel","name":"Tjiptorini Jaya Hotel","value":1},"geometry":{"type":"Point","coordinates":[110.4049191,-7.7797378]}},{"type":"Feature","properties":{"SmUserID":0,"SmUserID_1":0,"osm_id":3557508872,"osm_type":"nodes","tourism":"hotel","name":"Hotel Jayakarta","value":1},"geometry":{"type":"Point","coordinates":[110.4195542,-7.7836203]}},{"type":"Feature","properties":{"SmUserID":0,"SmUserID_1":0,"osm_id":3557508871,"osm_type":"nodes","tourism":"hotel","name":"Hotel Royal Ambarrukmo","value":1},"geometry":{"type":"Point","coordinates":[110.4027094,-7.78256]}},{"type":"Feature","properties":{"SmUserID":0,"SmUserID_1":0,"osm_id":3530590735,"osm_type":"nodes","tourism":"hotel","name":"Sriwedari Hotel and Cottage","value":1},"geometry":{"type":"Point","coordinates":[110.4043703,-7.7835198]}},{"type":"Feature","properties":{"SmUserID":0,"SmUserID_1":0,"osm_id":3530590737,"osm_type":"nodes","tourism":"hotel","name":"LPP Garden Hotel","value":1},"geometry":{"type":"Point","coordinates":[110.4055656,-7.7824029]}},{"type":"Feature","properties":{"SmUserID":0,"SmUserID_1":0,"osm_id":11304573466,"osm_type":"nodes","tourism":"hotel","name":"Wisma Yosoputro OYO 405","value":1},"geometry":{"type":"Point","coordinates":[110.4559033,-7.7774009]}},{"type":"Feature","properties":{"SmUserID":0,"SmUserID_1":0,"osm_id":3473035399,"osm_type":"nodes","tourism":"hotel","name":"Wisma Pu","value":1},"geometry":{"type":"Point","coordinates":[110.3945734,-7.7828531]}},{"type":"Feature","properties":{"SmUserID":0,"SmUserID_1":0,"osm_id":9725910131,"osm_type":"nodes","tourism":"hotel","name":"ibis Hotels","value":1},"geometry":{"type":"Point","coordinates":[110.3920533,-7.7839163]}},{"type":"Feature","properties":{"SmUserID":0,"SmUserID_1":0,"osm_id":9725892668,"osm_type":"nodes","tourism":"hotel","name":"Grand Mercure","value":1},"geometry":{"type":"Point","coordinates":[110.3922092,-7.7833818]}},{"type":"Feature","properties":{"SmUserID":0,"SmUserID_1":0,"osm_id":4851279316,"osm_type":"nodes","tourism":"hotel","name":"Dom","value":1},"geometry":{"type":"Point","coordinates":[110.3959832,-7.7330193]}},{"type":"Feature","properties":{"SmUserID":0,"SmUserID_1":0,"osm_id":3492884193,"osm_type":"nodes","tourism":"hotel","name":"Kangen Hotel","value":1},"geometry":{"type":"Point","coordinates":[110.3619242,-7.753663]}},{"type":"Feature","properties":{"SmUserID":0,"SmUserID_1":0,"osm_id":1848000010,"osm_type":"nodes","tourism":"hotel","name":"Sahid Rich Jogja Hotel","value":1},"geometry":{"type":"Point","coordinates":[110.3611659,-7.7524293]}},{"type":"Feature","properties":{"SmUserID":0,"SmUserID_1":0,"osm_id":1847997726,"osm_type":"nodes","tourism":"hotel","name":"Hotel Melati","value":1},"geometry":{"type":"Point","coordinates":[110.3625482,-7.7502036]}},{"type":"Feature","properties":{"SmUserID":0,"SmUserID_1":0,"osm_id":3557258299,"osm_type":"nodes","tourism":"hotel","name":"Crystal Lotus Hotel Yogyakarta Managed by Prabu","value":1},"geometry":{"type":"Point","coordinates":[110.3619963,-7.7607878]}},{"type":"Feature","properties":{"SmUserID":0,"SmUserID_1":0,"osm_id":4590881638,"osm_type":"nodes","tourism":"hotel","name":"Omahe Winahyu Homestay","value":1},"geometry":{"type":"Point","coordinates":[110.4140963,-7.7567647]}},{"type":"Feature","properties":{"SmUserID":0,"SmUserID_1":0,"osm_id":1652969654,"osm_type":"nodes","tourism":"hotel","name":"Villa Hanis","value":1},"geometry":{"type":"Point","coordinates":[110.3771558,-7.7327152]}},{"type":"Feature","properties":{"SmUserID":0,"SmUserID_1":0,"osm_id":3765105783,"osm_type":"nodes","tourism":"hotel","name":"Disaster Oasis","value":1},"geometry":{"type":"Point","coordinates":[110.4245641,-7.6302724]}},{"type":"Feature","properties":{"SmUserID":0,"SmUserID_1":0,"osm_id":1847978909,"osm_type":"nodes","tourism":"hotel","name":"Hotel Graha Buana","value":1},"geometry":{"type":"Point","coordinates":[110.3622581,-7.7436528]}},{"type":"Feature","properties":{"SmUserID":0,"SmUserID_1":0,"osm_id":9818970770,"osm_type":"nodes","tourism":"hotel","name":"OYO 1829 Zaira House","value":1},"geometry":{"type":"Point","coordinates":[110.372736,-7.7368999]}},{"type":"Feature","properties":{"SmUserID":0,"SmUserID_1":0,"osm_id":1654208565,"osm_type":"nodes","tourism":"hotel","name":"Rumah Mertua","value":1},"geometry":{"type":"Point","coordinates":[110.3687121,-7.7408272]}},{"type":"Feature","properties":{"SmUserID":0,"SmUserID_1":0,"osm_id":3557508868,"osm_type":"nodes","tourism":"hotel","name":"Hyatt Regency","value":1},"geometry":{"type":"Point","coordinates":[110.3734285,-7.7409592]}},{"type":"Feature","properties":{"SmUserID":0,"SmUserID_1":0,"osm_id":4851278881,"osm_type":"nodes","tourism":"hotel","name":"Crystal Lotus","value":1},"geometry":{"type":"Point","coordinates":[110.3622608,-7.7593574]}},{"type":"Feature","properties":{"SmUserID":0,"SmUserID_1":0,"osm_id":9697463558,"osm_type":"nodes","tourism":"hotel","name":"Satoria","value":1},"geometry":{"type":"Point","coordinates":[110.4220532,-7.7839031]}},{"type":"Feature","properties":{"SmUserID":0,"SmUserID_1":0,"osm_id":4590677771,"osm_type":"nodes","tourism":"hotel","name":"D'Salvatore Art & Boutique Hotel 4,1","value":1},"geometry":{"type":"Point","coordinates":[110.4257642,-7.7834658]}},{"type":"Feature","properties":{"SmUserID":0,"SmUserID_1":0,"osm_id":1652912717,"osm_type":"nodes","tourism":"hotel","name":"Grand Diamond Hotel Yogyakarta","value":1},"geometry":{"type":"Point","coordinates":[110.4234932,-7.782535]}},{"type":"Feature","properties":{"SmUserID":0,"SmUserID_1":0,"osm_id":9697446968,"osm_type":"nodes","tourism":"hotel","name":"Grand Orchid Hotel","value":1},"geometry":{"type":"Point","coordinates":[110.4243269,-7.7824738]}},{"type":"Feature","properties":{"SmUserID":0,"SmUserID_1":0,"osm_id":4590677769,"osm_type":"nodes","tourism":"hotel","name":"Hotel Omahkoe","value":1},"geometry":{"type":"Point","coordinates":[110.4272059,-7.785281]}},{"type":"Feature","properties":{"SmUserID":0,"SmUserID_1":0,"osm_id":3530590736,"osm_type":"nodes","tourism":"hotel","name":"Hotel Paku Mas","value":1},"geometry":{"type":"Point","coordinates":[110.4027952,-7.7834848]}},{"type":"Feature","properties":{"SmUserID":0,"SmUserID_1":0,"osm_id":9725891946,"osm_type":"nodes","tourism":"hotel","name":"Platinum","value":1},"geometry":{"type":"Point","coordinates":[110.437282,-7.7828976]}},{"type":"Feature","properties":{"SmUserID":0,"SmUserID_1":0,"osm_id":9843367883,"osm_type":"nodes","tourism":"hotel","name":"Hotel Srikandi Bandara","value":1},"geometry":{"type":"Point","coordinates":[110.4495941,-7.7825666]}},{"type":"Feature","properties":{"SmUserID":0,"SmUserID_1":0,"osm_id":9859649452,"osm_type":"nodes","tourism":"hotel","name":"Hotel Wijaya","value":1},"geometry":{"type":"Point","coordinates":[110.4461723,-7.7839847]}},{"type":"Feature","properties":{"SmUserID":0,"SmUserID_1":0,"osm_id":9835194948,"osm_type":"nodes","tourism":"hotel","name":"The Amartya Hotel Yogyakarta","value":1},"geometry":{"type":"Point","coordinates":[110.330282,-7.7980772]}},{"type":"Feature","properties":{"SmUserID":0,"SmUserID_1":0,"osm_id":1769538027,"osm_type":"nodes","tourism":"hotel","name":"Rumah Palagan","value":1},"geometry":{"type":"Point","coordinates":[110.3832218,-7.7320593]}},{"type":"Feature","properties":{"SmUserID":0,"SmUserID_1":0,"osm_id":9784588913,"osm_type":"nodes","tourism":"hotel","name":"Hotel Pondok Anggun","value":1},"geometry":{"type":"Point","coordinates":[110.4114968,-7.7612939]}},{"type":"Feature","properties":{"SmUserID":0,"SmUserID_1":0,"osm_id":4588967021,"osm_type":"nodes","tourism":"hotel","name":"Kosan Mbah Mulyoharjo","value":1},"geometry":{"type":"Point","coordinates":[110.4118799,-7.7538334]}},{"type":"Feature","properties":{"SmUserID":0,"SmUserID_1":0,"osm_id":4590296603,"osm_type":"nodes","tourism":"hotel","name":"Hotel Kusuma Condong Wisma Tamu","value":1},"geometry":{"type":"Point","coordinates":[110.4086467,-7.7542356]}},{"type":"Feature","properties":{"SmUserID":0,"SmUserID_1":0,"osm_id":11329164925,"osm_type":"nodes","tourism":"hotel","name":"Garrya Bianti Yogyakarta","value":1},"geometry":{"type":"Point","coordinates":[110.3642997,-7.7088698]}},{"type":"Feature","properties":{"SmUserID":0,"SmUserID_1":0,"osm_id":10033064161,"osm_type":"nodes","tourism":"hotel","name":"Popi Hotel & Homestay","value":1},"geometry":{"type":"Point","coordinates":[110.4192355,-7.6814154]}},{"type":"Feature","properties":{"SmUserID":0,"SmUserID_1":0,"osm_id":3530581765,"osm_type":"nodes","tourism":"hotel","name":"Citihub Hotel Gejayan","value":1},"geometry":{"type":"Point","coordinates":[110.3948305,-7.7591302]}},{"type":"Feature","properties":{"SmUserID":0,"SmUserID_1":0,"osm_id":4851279649,"osm_type":"nodes","tourism":"hotel","name":"Sunrise","value":1},"geometry":{"type":"Point","coordinates":[110.3926722,-7.7593401]}},{"type":"Feature","properties":{"SmUserID":0,"SmUserID_1":0,"osm_id":3557380296,"osm_type":"nodes","tourism":"hotel","name":"Cakra Kusuma Hotel","value":1},"geometry":{"type":"Point","coordinates":[110.3808206,-7.7600869]}},{"type":"Feature","properties":{"SmUserID":0,"SmUserID_1":0,"osm_id":3557348913,"osm_type":"nodes","tourism":"hotel","name":"Wisma Anugrah Wisata","value":1},"geometry":{"type":"Point","coordinates":[110.3817488,-7.7592304]}},{"type":"Feature","properties":{"SmUserID":0,"SmUserID_1":0,"osm_id":7152724240,"osm_type":"nodes","tourism":"hotel","name":"Hotel Lafayette","value":1},"geometry":{"type":"Point","coordinates":[110.3874103,-7.759224]}},{"type":"Feature","properties":{"SmUserID":0,"SmUserID_1":0,"osm_id":11781137576,"osm_type":"nodes","tourism":"hotel","name":"Hotel Ayaskara","value":1},"geometry":{"type":"Point","coordinates":[110.503261,-7.7804124]}},{"type":"Feature","properties":{"SmUserID":0,"SmUserID_1":0,"osm_id":9670255884,"osm_type":"nodes","tourism":"hotel","name":"Bueno Colombo Hotel","value":1},"geometry":{"type":"Point","coordinates":[110.4700164,-7.7682319]}},{"type":"Feature","properties":{"SmUserID":0,"SmUserID_1":0,"osm_id":9725632642,"osm_type":"nodes","tourism":"hotel","name":"Hotel Srikandi","value":1},"geometry":{"type":"Point","coordinates":[110.4698687,-7.7685614]}},{"type":"Feature","properties":{"SmUserID":0,"SmUserID_1":0,"osm_id":3530590738,"osm_type":"nodes","tourism":"hotel","name":"Merapi Merbabu Hotels","value":1},"geometry":{"type":"Point","coordinates":[110.409937,-7.7715261]}},{"type":"Feature","properties":{"SmUserID":0,"SmUserID_1":0,"osm_id":4590296614,"osm_type":"nodes","tourism":"hotel","name":"Hotel Dafam Fortuna","value":1},"geometry":{"type":"Point","coordinates":[110.4110377,-7.7652437]}}]}